[{
  "address": "广东省深圳市龙华区北站西广场",
  "city": "深圳市",
  "city_id": 11,
  "distance": "0m",
  "district_id": 5906,
  "geohash": "ws10dez2v60g",
  "id": "B0FFFSAQEO",
  "latitude": 22.60863,
  "longitude": 114.026296,
  "name": "深圳通大厦",
  "request_id": "2956156190175540045",
  "short_address": "北站西广场"
}, {
  "address": "广东省深圳市龙华区逸秀新村258栋",
  "city": "深圳市",
  "city_id": 11,
  "distance": "231m",
  "district_id": 5906,
  "geohash": "ws10dew0rs8z",
  "id": "B02F38NUF9",
  "latitude": 22.607185,
  "longitude": 114.024676,
  "name": "逸秀新村258栋",
  "request_id": "2946631625711276792",
  "short_address": "龙华区逸秀新村258栋"
}, {
  "address": "广东省深圳市龙华区致远中路2号(北站西广场)",
  "city": "深圳市",
  "city_id": 11,
  "distance": "267m",
  "district_id": 5906,
  "geohash": "ws10dg2mnufs",
  "id": "B0FFF3MBYP",
  "latitude": 22.606628,
  "longitude": 114.027736,
  "name": "维也纳酒店(北站店餐厅)",
  "request_id": "4300541913420771903",
  "short_address": "致远中路2号(北站西广场)"
}, {
  "address": "广东省深圳市龙华区致远中路2号深圳北站西广场",
  "city": "深圳市",
  "city_id": 11,
  "distance": "282m",
  "district_id": 5906,
  "geohash": "ws10dg2th167",
  "id": "B0FFFS0LL5",
  "latitude": 22.606609,
  "longitude": 114.027961,
  "name": "维也纳酒店(深圳北站店)",
  "request_id": "6416916600274384064",
  "short_address": "致远中路2号深圳北站西广场"
}, {
  "address": "广东省深圳市龙华区熙园山院北150米(致远中路西)",
  "city": "深圳市",
  "city_id": 11,
  "distance": "303m",
  "district_id": 5906,
  "geohash": "ws10deqdh297",
  "id": "B02F38NYFD",
  "latitude": 22.60609,
  "longitude": 114.025224,
  "name": "逸秀新村155栋",
  "request_id": "1090401979060321597",
  "short_address": "熙园山院北150米(致远中路西)"
}, {
  "address": "广东省深圳市龙华区留仙大道南200米",
  "city": "深圳市",
  "city_id": 11,
  "distance": "409m",
  "district_id": 5906,
  "geohash": "ws10desds7kh",
  "id": "B0FFHU7FA1",
  "latitude": 22.607564,
  "longitude": 114.022481,
  "name": "中铁建工汇德大厦生活区",
  "request_id": "1369093175651984053",
  "short_address": "留仙大道南200米"
}, {
  "address": "广东省深圳市龙华区致远南路",
  "city": "深圳市",
  "city_id": 11,
  "distance": "559m",
  "district_id": 5906,
  "geohash": "ws10dfbvs1be",
  "id": "B0FFFE92YZ",
  "latitude": 22.603951,
  "longitude": 114.028302,
  "name": "玉龙学校",
  "request_id": "3270967607183961074",
  "short_address": "致远南路"
}, {
  "address": "广东省深圳市龙华区新区大道",
  "city": "深圳市",
  "city_id": 11,
  "distance": "571m",
  "district_id": 5906,
  "geohash": "ws10dsteyrrg",
  "id": "B0FFF4J7FJ",
  "latitude": 22.613293,
  "longitude": 114.023945,
  "name": "体育运动学校住宿楼2栋",
  "request_id": "5862203430312589337",
  "short_address": "新区大道"
}, {
  "address": "广东省深圳市龙华区玉龙路3",
  "city": "深圳市",
  "city_id": 11,
  "distance": "593m",
  "district_id": 5906,
  "geohash": "ws10ddz1gdnq",
  "id": "B02F38IB7F",
  "latitude": 22.603309,
  "longitude": 114.025885,
  "name": "熙园山院",
  "request_id": "7944483981802353280",
  "short_address": "玉龙路3"
}, {
  "address": "广东省深圳市龙华区熙园山院(玉龙路西110米)",
  "city": "深圳市",
  "city_id": 11,
  "distance": "614m",
  "district_id": 5906,
  "geohash": "ws10ddz2w7f3",
  "id": "B02F38NV7L",
  "latitude": 22.603103,
  "longitude": 114.026341,
  "name": "逸秀新村245栋",
  "request_id": "6772383657035761637",
  "short_address": "熙园山院(玉龙路西110米)"
}, {
  "address": "广东省深圳市龙华区白龙路",
  "city": "深圳市",
  "city_id": 11,
  "distance": "622m",
  "district_id": 5906,
  "geohash": "ws10dg42vm43",
  "id": "B0FFF5KKKQ",
  "latitude": 22.604526,
  "longitude": 114.030418,
  "name": "龙悦居",
  "request_id": "6933132957580793225",
  "short_address": "白龙路"
}, {
  "address": "广东省深圳市龙华区民治街道",
  "city": "深圳市",
  "city_id": 11,
  "distance": "649m",
  "district_id": 5906,
  "geohash": "ws10ddxnguh3",
  "id": "B0FFF52FHJ",
  "latitude": 22.602804,
  "longitude": 114.025893,
  "name": "逸秀新村235栋",
  "request_id": "5865523996812976493",
  "short_address": "民治街道"
}, {
  "address": "广东省深圳市龙华区民塘路与留仙大道交叉口南150米",
  "city": "深圳市",
  "city_id": 11,
  "distance": "662m",
  "district_id": 5906,
  "geohash": "ws10dudbdr4k",
  "id": "B0FFG7MLEH",
  "latitude": 22.612734,
  "longitude": 114.030976,
  "name": "新城CBD商务中心(建设中)",
  "request_id": "2913132237407778590",
  "short_address": "民塘路与留仙大道交叉口南150米"
}, {
  "address": "广东省深圳市龙华区民治街道龙悦居四期9栋1层",
  "city": "深圳市",
  "city_id": 11,
  "distance": "669m",
  "district_id": 5906,
  "geohash": "ws10dffxjre9",
  "id": "B0FFG4PJIJ",
  "latitude": 22.604239,
  "longitude": 114.030763,
  "name": "龙华区北站社区服务中心",
  "request_id": "4265339315472168935",
  "short_address": "民治街道龙悦居四期9栋1层"
}, {
  "address": "广东省深圳市龙华区双龙街",
  "city": "深圳市",
  "city_id": 11,
  "distance": "709m",
  "district_id": 5906,
  "geohash": "ws10dffv6xg6",
  "id": "B0FFIBPMY3",
  "latitude": 22.60394,
  "longitude": 114.030988,
  "name": "深圳龙华民治街道北站社区",
  "request_id": "1204994355144040474",
  "short_address": "双龙街"
}, {
  "address": "广东省深圳市龙华区玉龙路1号",
  "city": "深圳市",
  "city_id": 11,
  "distance": "717m",
  "district_id": 5906,
  "geohash": "ws10ddxgrpnb",
  "id": "B0FFHC9SCG",
  "latitude": 22.602219,
  "longitude": 114.027066,
  "name": "圣·莫丽斯C6栋",
  "request_id": "8446275211602850852",
  "short_address": "玉龙路1号"
}, {
  "address": "广东省深圳市龙华区民塘路与留仙大道交叉口东南100米",
  "city": "深圳市",
  "city_id": 11,
  "distance": "731m",
  "district_id": 5906,
  "geohash": "ws10dueh1r7e",
  "id": "B0FFGZ055L",
  "latitude": 22.613336,
  "longitude": 114.031278,
  "name": "汇德大厦(建设中)",
  "request_id": "1379569197925776839",
  "short_address": "民塘路与留仙大道交叉口东南100米"
}, {
  "address": "广东省深圳市龙华区民塘路深圳北站东广场",
  "city": "深圳市",
  "city_id": 11,
  "distance": "742m",
  "district_id": 5906,
  "geohash": "ws10duh7x28x",
  "id": "B0FFH4MYFW",
  "latitude": 22.610468,
  "longitude": 114.033248,
  "name": "HBC汇隆中心",
  "request_id": "2819597959076974382",
  "short_address": "民塘路深圳北站东广场"
}]
